{
  "type": "FeatureCollection",
  "name": "Police Stations",
  "crs": { "type": "name", "properties": { "name": "urn:ogc:def:crs:OGC:1.3:CRS84" } },
  "features": [
    {
      "type": "Feature",
      "properties": { "Name": "Shampur Police Station", "dmpId": "shyampur" },
      "geometry": { "type": "Point", "coordinates": [90.4312785, 23.6918143] }
    },
    {
      "type": "Feature",
      "properties": { "Name": "Lalbagh Police Station", "dmpId": "lalbagh" },
      "geometry": { "type": "Point", "coordinates": [90.3843978, 23.7161221] }
    },
    {
      "type": "Feature",
      "properties": { "Name": "Bangshal Police Station", "dmpId": "banglshal" },
      "geometry": { "type": "Point", "coordinates": [90.4105067, 23.7140937] }
    },
    {
      "type": "Feature",
      "properties": { "Name": "Tejgaon Police Station", "dmpId": "tejgaon" },
      "geometry": { "type": "Point", "coordinates": [90.3897648, 23.7614402] }
    },
    {
      "type": "Feature",
      "properties": { "Name": "Vatara Police Station", "dmpId": "vatara" },
      "geometry": { "type": "Point", "coordinates": [90.4239699, 23.7974262] }
    },
    {
      "type": "Feature",
      "properties": { "Name": "Chawk Bazar Police Station", "dmpId": "chalkbazar" },
      "geometry": { "type": "Point", "coordinates": [90.3957006, 23.7172459] }
    },
    {
      "type": "Feature",
      "properties": { "Name": "Pallabi Police Station", "dmpId": "Pallabi" },
      "geometry": { "type": "Point", "coordinates": [90.3769825, 23.8300776] }
    },
    {
      "type": "Feature",
      "properties": { "Name": "Dhanmondi Model Thana", "dmpId": "dhanmondi" },
      "geometry": { "type": "Point", "coordinates": [90.3815117, 23.7432684] }
    },
    {
      "type": "Feature",
      "properties": { "Name": "Badda Police Station", "dmpId": "badda" },
      "geometry": { "type": "Point", "coordinates": [90.4274354, 23.7713899] }
    },
    {
      "type": "Feature",
      "properties": { "Name": "Gulshan Police Station", "dmpId": "gulshan" },
      "geometry": { "type": "Point", "coordinates": [90.4128964, 23.7969375] }
    },
    {
      "type": "Feature",
      "properties": { "Name": "Gandaria Police Station", "dmpId": "gandaria" },
      "geometry": { "type": "Point", "coordinates": [90.421029, 23.6995553] }
    },
    {
      "type": "Feature",
      "properties": { "Name": "Hazaribagh Police Station", "dmpId": "hazaribag" },
      "geometry": { "type": "Point", "coordinates": [90.3691369, 23.7352391] }
    },
    {
      "type": "Feature",
      "properties": { "Name": "Ramna Model Police Station", "dmpId": "ramna" },
      "geometry": { "type": "Point", "coordinates": [90.4045948, 23.7456715] }
    },
    {
      "type": "Feature",
      "properties": { "Name": "Motijheel Police Station", "dmpId": "motijheel" },
      "geometry": { "type": "Point", "coordinates": [90.4170537, 23.7299638] }
    },
    {
      "type": "Feature",
      "properties": { "Name": "Mohammadpur Police Station", "dmpId": "mohammadpur" },
      "geometry": { "type": "Point", "coordinates": [90.3638698, 23.7553717] }
    },
    {
      "type": "Feature",
      "properties": { "Name": "Shah Ali Police Station", "dmpId": "shahali" },
      "geometry": { "type": "Point", "coordinates": [90.348875, 23.8054275] }
    },
    {
      "type": "Feature",
      "properties": { "Name": "Paltan Model Thana", "dmpId": "paltan" },
      "geometry": { "type": "Point", "coordinates": [90.4161933, 23.7360921] }
    },
    {
      "type": "Feature",
      "properties": { "Name": "Jatrabari Police Station", "dmpId": "jatrabari" },
      "geometry": { "type": "Point", "coordinates": [90.4355408, 23.7102737] }
    }
  ]
}
